{
  "type": "FeatureCollection",
  "features": [
    {
      "type": "Feature",
      "properties": {
          "name": "GCF Ortigas",
          "type": "church"
      },
      "geometry": {
          "type": "Point",
          "coordinates": [121.0611, 14.5886]
      }
    },
    {
      "type": "Feature",
      "geometry": {
        "type": "Point",
        "coordinates": [
          121.0766,
          14.644955
        ]
      },
      "properties": {
        "name": "Miriam College",
        "type": "school",
        "color": "#0000FF"
      }
    },
    {
      "type": "Feature",
      "geometry": {
        "type": "Point",
        "coordinates": [
          121.0781,
          14.6394557
        ]
      },
      "properties": {
        "name": "Ateneo de Manila University",
        "type": "school",
        "popupContent": "ADMU",
        "color": "#0000FF"
      }
    },
    {
      "type": "Feature",
      "geometry": {
        "type": "Point",
        "coordinates": [
          121.0663401,
          14.6538519
        ]
      },
      "properties": {
        "name": "UP Diliman",
        "type": "school",
        "color": "#800000"
      }
    },
    {
      "type": "Feature",
      "geometry": {
        "type": "Point",
        "coordinates": [
          120.9844258,
          14.5758311
        ]
      },
      "properties": {
        "name": "UP Manila",
        "type": "school",
        "color": "#800000"
      }
    },
    {
      "type": "Feature",
      "geometry": {
        "type": "Point",
        "coordinates": [
          120.990946,
          14.5648042
        ]
      },
      "properties": {
        "name": "De La Salle University - Manila",
        "type": "school",
        "color": "#008000"
      }
    },
    {
      "type": "Feature",
      "geometry": {
        "type": "Point",
        "coordinates": [
          120.9896451,
          14.6095184
        ]
      },
      "properties": {
        "name": "University of Santo Tomas",
        "type": "school",
        "color": "#FFFF00"
      }
    },
    {
      "type": "Feature",
      "geometry": {
        "type": "Point",
        "coordinates": [
          121.0606713,
          14.5803802
        ]
      },
      "properties": {
        "name": "University of Asia and the Pacific",
        "type": "school",
        "color": "#FF0000"
      }
    },
    {
      "type": "Feature",
      "geometry": {
        "type": "Point",
        "coordinates": [
          121.0572589,
          14.5935978
        ]
      },
      "properties": {
        "name": "Messiah College",
        "type": "school",
        "color": "#FF0000"
      }
    },
    {
      "type": "Feature",
      "geometry": {
        "type": "Point",
        "coordinates": [
          121.0559,
          14.5641002
        ]
      },
      "properties": {
        "name": "University of Makati",
        "type": "school",
        "color": "#0000FF"
      }
    },
    {
      "type": "Feature",
      "geometry": {
        "type": "Point",
        "coordinates": [
          121.001014,
          14.5993127
        ]
      },
      "properties": {
        "name": "Earist College",
        "type": "school",
        "color": "#800000"
      }
    },
    {
      "type": "Feature",
      "geometry": {
        "type": "Point",
        "coordinates": [
          121.0085669,
          14.5979344
        ]
      },
      "properties": {
        "name": "Polytechnic University of the Philippines",
        "type": "school",
        "color": "#800000"
      }
    },
    {
      "type": "Feature",
      "geometry": {
        "type": "Point",
        "coordinates": [
          121.0403022,
          14.6180502
        ]
      },
      "properties": {
        "name": "Kalayaan College",
        "type": "school",
        "color": "#0000FF"
      }
    },
    {
      "type": "Feature",
      "geometry": {
        "type": "Point",
        "coordinates": [
          120.986703,
          14.6038972
        ]
      },
      "properties": {
        "name": "Far Eastern University Manila",
        "type": "school",
        "color": "#008000"
      }
    }
  ]
}
